[
  {
    "id": "andaman-nicobar",
    "name": "Andaman & Nicobar Islands",
    "type": "UT",
    "capital": "Port Blair",
    "constituencies": 1,
    "commissioner": "CEO Andaman & Nicobar",
    "website": "https://www.ceoandaman.nic.in/",
    "fact": "Has a single Lok Sabha constituency.",
    "lat": 11.6234,
    "lng": 92.7265
  },
  {
    "id": "andhra-pradesh",
    "name": "Andhra Pradesh",
    "type": "State",
    "capital": "Amaravati",
    "constituencies": 25,
    "commissioner": "CEO Andhra Pradesh",
    "website": "https://ceoandhra.nic.in/",
    "fact": "Bicameral legislature with Legislative Council.",
    "lat": 15.9129,
    "lng": 79.7400
  },
  {
    "id": "arunachal-pradesh",
    "name": "Arunachal Pradesh",
    "type": "State",
    "capital": "Itanagar",
    "constituencies": 2,
    "commissioner": "CEO Arunachal Pradesh",
    "website": "https://ceoarunachal.nic.in/",
    "fact": "Known as the Land of the Rising Sun.",
    "lat": 28.2180,
    "lng": 94.7278
  },
  {
    "id": "assam",
    "name": "Assam",
    "type": "State",
    "capital": "Dispur",
    "constituencies": 14,
    "commissioner": "CEO Assam",
    "website": "https://ceoassam.nic.in/",
    "fact": "Largest number of constituencies in North East India.",
    "lat": 26.2006,
    "lng": 92.9376
  },
  {
    "id": "bihar",
    "name": "Bihar",
    "type": "State",
    "capital": "Patna",
    "constituencies": 40,
    "commissioner": "CEO Bihar",
    "website": "https://ceobihar.nic.in/",
    "fact": "One of the most politically significant states in India.",
    "lat": 25.0961,
    "lng": 85.3131
  },
  {
    "id": "chandigarh",
    "name": "Chandigarh",
    "type": "UT",
    "capital": "Chandigarh",
    "constituencies": 1,
    "commissioner": "CEO Chandigarh",
    "website": "https://ceochandigarh.gov.in/",
    "fact": "A planned city that serves as the capital for two states.",
    "lat": 30.7333,
    "lng": 76.7794
  },
  {
    "id": "chhattisgarh",
    "name": "Chhattisgarh",
    "type": "State",
    "capital": "Raipur",
    "constituencies": 11,
    "commissioner": "CEO Chhattisgarh",
    "website": "https://ceochhattisgarh.nic.in/",
    "fact": "Known for its rich mineral deposits and forests.",
    "lat": 21.2787,
    "lng": 81.8661
  },
  {
    "id": "dadra-nagar-haveli-daman-diu",
    "name": "Dadra & Nagar Haveli and Daman & Diu",
    "type": "UT",
    "capital": "Daman",
    "constituencies": 2,
    "commissioner": "CEO DNH & DD",
    "website": "https://ceodnhdd.nic.in/",
    "fact": "Merged into a single Union Territory in 2020.",
    "lat": 20.3974,
    "lng": 72.8328
  },
  {
    "id": "delhi",
    "name": "Delhi",
    "type": "UT",
    "capital": "New Delhi",
    "constituencies": 7,
    "commissioner": "CEO Delhi",
    "website": "https://ceodelhi.gov.in/",
    "fact": "National Capital Territory with special administrative status.",
    "lat": 28.6139,
    "lng": 77.2090
  },
  {
    "id": "goa",
    "name": "Goa",
    "type": "State",
    "capital": "Panaji",
    "constituencies": 2,
    "commissioner": "CEO Goa",
    "website": "https://ceogoa.nic.in/",
    "fact": "India's smallest state by area.",
    "lat": 15.2993,
    "lng": 74.1240
  },
  {
    "id": "gujarat",
    "name": "Gujarat",
    "type": "State",
    "capital": "Gandhinagar",
    "constituencies": 26,
    "commissioner": "CEO Gujarat",
    "website": "https://ceo.gujarat.gov.in/",
    "fact": "Home state of current PM Narendra Modi.",
    "lat": 22.2587,
    "lng": 71.1924
  },
  {
    "id": "haryana",
    "name": "Haryana",
    "type": "State",
    "capital": "Chandigarh",
    "constituencies": 10,
    "commissioner": "CEO Haryana",
    "website": "https://ceoharyana.gov.in/",
    "fact": "Surrounds the national capital on three sides.",
    "lat": 29.0588,
    "lng": 76.0856
  },
  {
    "id": "himachal-pradesh",
    "name": "Himachal Pradesh",
    "type": "State",
    "capital": "Shimla",
    "constituencies": 4,
    "commissioner": "CEO Himachal Pradesh",
    "website": "https://ceohimachal.nic.in/",
    "fact": "Known for the highest polling station in the world at Tashigang.",
    "lat": 31.1048,
    "lng": 77.1734
  },
  {
    "id": "jammu-kashmir",
    "name": "Jammu & Kashmir",
    "type": "UT",
    "capital": "Srinagar/Jammu",
    "constituencies": 5,
    "commissioner": "CEO Jammu & Kashmir",
    "website": "https://ceojk.nic.in/",
    "fact": "Became a Union Territory in 2019.",
    "lat": 33.7782,
    "lng": 76.5762
  },
  {
    "id": "jharkhand",
    "name": "Jharkhand",
    "type": "State",
    "capital": "Ranchi",
    "constituencies": 14,
    "commissioner": "CEO Jharkhand",
    "website": "https://ceo.jharkhand.gov.in/",
    "fact": "Known as the Land of Forests.",
    "lat": 23.6102,
    "lng": 85.2799
  },
  {
    "id": "karnataka",
    "name": "Karnataka",
    "type": "State",
    "capital": "Bengaluru",
    "constituencies": 28,
    "commissioner": "CEO Karnataka",
    "website": "https://ceo.karnataka.gov.in/",
    "fact": "IT hub of India, has high voter awareness.",
    "lat": 15.3173,
    "lng": 75.7139
  },
  {
    "id": "kerala",
    "name": "Kerala",
    "type": "State",
    "capital": "Thiruvananthapuram",
    "constituencies": 20,
    "commissioner": "CEO Kerala",
    "website": "https://www.ceo.kerala.gov.in/",
    "fact": "Consistent high voter turnout in elections.",
    "lat": 10.8505,
    "lng": 76.2711
  },
  {
    "id": "ladakh",
    "name": "Ladakh",
    "type": "UT",
    "capital": "Leh",
    "constituencies": 1,
    "commissioner": "CEO Ladakh",
    "website": "https://ceoladakh.nic.in/",
    "fact": "Became a separate Union Territory in 2019.",
    "lat": 34.1526,
    "lng": 77.5771
  },
  {
    "id": "lakshadweep",
    "name": "Lakshadweep",
    "type": "UT",
    "capital": "Kavaratti",
    "constituencies": 1,
    "commissioner": "CEO Lakshadweep",
    "website": "https://ceolakshadweep.gov.in/",
    "fact": "India's smallest Union Territory.",
    "lat": 10.5667,
    "lng": 72.6417
  },
  {
    "id": "madhya-pradesh",
    "name": "Madhya Pradesh",
    "type": "State",
    "capital": "Bhopal",
    "constituencies": 29,
    "commissioner": "CEO Madhya Pradesh",
    "website": "https://ceomadhyapradesh.nic.in/",
    "fact": "The 'Heart of India' with a vast tribal electorate.",
    "lat": 22.9734,
    "lng": 78.6569
  },
  {
    "id": "maharashtra",
    "name": "Maharashtra",
    "type": "State",
    "capital": "Mumbai",
    "constituencies": 48,
    "commissioner": "CEO Maharashtra",
    "website": "https://ceomaharashtra.gov.in/",
    "fact": "Second largest number of Lok Sabha seats in India.",
    "lat": 19.7515,
    "lng": 75.7139
  },
  {
    "id": "manipur",
    "name": "Manipur",
    "type": "State",
    "capital": "Imphal",
    "constituencies": 2,
    "commissioner": "CEO Manipur",
    "website": "https://ceomanipur.nic.in/",
    "fact": "Known as the Jewel of India.",
    "lat": 24.6637,
    "lng": 93.9063
  },
  {
    "id": "meghalaya",
    "name": "Meghalaya",
    "type": "State",
    "capital": "Shillong",
    "constituencies": 2,
    "commissioner": "CEO Meghalaya",
    "website": "https://ceomeghalaya.nic.in/",
    "fact": "The Abode of Clouds, home to the wettest place on Earth.",
    "lat": 25.4670,
    "lng": 91.3662
  },
  {
    "id": "mizoram",
    "name": "Mizoram",
    "type": "State",
    "capital": "Aizawl",
    "constituencies": 1,
    "commissioner": "CEO Mizoram",
    "website": "https://ceomizoram.nic.in/",
    "fact": "Has one of the highest literacy rates in India.",
    "lat": 23.1645,
    "lng": 92.9376
  },
  {
    "id": "nagaland",
    "name": "Nagaland",
    "type": "State",
    "capital": "Kohima",
    "constituencies": 1,
    "commissioner": "CEO Nagaland",
    "website": "https://ceonagaland.nic.in/",
    "fact": "Known as the Land of Festivals.",
    "lat": 26.1584,
    "lng": 94.5624
  },
  {
    "id": "odisha",
    "name": "Odisha",
    "type": "State",
    "capital": "Bhubaneswar",
    "constituencies": 21,
    "commissioner": "CEO Odisha",
    "website": "https://ceoodisha.nic.in/",
    "fact": "Has a strong regional party influence with BJD.",
    "lat": 20.9517,
    "lng": 85.0985
  },
  {
    "id": "puducherry",
    "name": "Puducherry",
    "type": "UT",
    "capital": "Puducherry",
    "constituencies": 1,
    "commissioner": "CEO Puducherry",
    "website": "https://ceopuducherry.py.gov.in/",
    "fact": "A former French colony with unique cultural heritage.",
    "lat": 11.9416,
    "lng": 79.8083
  },
  {
    "id": "punjab",
    "name": "Punjab",
    "type": "State",
    "capital": "Chandigarh",
    "constituencies": 13,
    "commissioner": "CEO Punjab",
    "website": "https://ceopunjab.nic.in/",
    "fact": "Strong agrarian political influence.",
    "lat": 31.1471,
    "lng": 75.3412
  },
  {
    "id": "rajasthan",
    "name": "Rajasthan",
    "type": "State",
    "capital": "Jaipur",
    "constituencies": 25,
    "commissioner": "CEO Rajasthan",
    "website": "https://ceorajasthan.nic.in/",
    "fact": "Largest state by area in India.",
    "lat": 27.0238,
    "lng": 74.2179
  },
  {
    "id": "sikkim",
    "name": "Sikkim",
    "type": "State",
    "capital": "Gangtok",
    "constituencies": 1,
    "commissioner": "CEO Sikkim",
    "website": "https://ceosikkim.nic.in/",
    "fact": "India's first fully organic state.",
    "lat": 27.5330,
    "lng": 88.5122
  },
  {
    "id": "tamil-nadu",
    "name": "Tamil Nadu",
    "type": "State",
    "capital": "Chennai",
    "constituencies": 39,
    "commissioner": "CEO Tamil Nadu",
    "website": "https://elections.tn.gov.in/",
    "fact": "Dominated by Dravidian political parties.",
    "lat": 11.1271,
    "lng": 78.6569
  },
  {
    "id": "telangana",
    "name": "Telangana",
    "type": "State",
    "capital": "Hyderabad",
    "constituencies": 17,
    "commissioner": "CEO Telangana",
    "website": "https://ceotelangana.nic.in/",
    "fact": "India's youngest state, formed in 2014.",
    "lat": 18.1124,
    "lng": 79.0193
  },
  {
    "id": "tripura",
    "name": "Tripura",
    "type": "State",
    "capital": "Agartala",
    "constituencies": 2,
    "commissioner": "CEO Tripura",
    "website": "https://ceotripura.nic.in/",
    "fact": "One of the most literate states in North East India.",
    "lat": 23.9408,
    "lng": 91.9882
  },
  {
    "id": "uttar-pradesh",
    "name": "Uttar Pradesh",
    "type": "State",
    "capital": "Lucknow",
    "constituencies": 80,
    "commissioner": "CEO Uttar Pradesh",
    "website": "https://ceouttarpradesh.nic.in/",
    "fact": "Largest state by population, has the most Lok Sabha seats.",
    "lat": 26.8467,
    "lng": 80.9462
  },
  {
    "id": "uttarakhand",
    "name": "Uttarakhand",
    "type": "State",
    "capital": "Dehradun",
    "constituencies": 5,
    "commissioner": "CEO Uttarakhand",
    "website": "https://ceo.uk.gov.in/",
    "fact": "Known as the Devbhumi or Land of the Gods.",
    "lat": 30.0668,
    "lng": 79.0193
  },
  {
    "id": "west-bengal",
    "name": "West Bengal",
    "type": "State",
    "capital": "Kolkata",
    "constituencies": 42,
    "commissioner": "CEO West Bengal",
    "website": "https://ceowestbengal.nic.in/",
    "fact": "Rich political history with high voter participation.",
    "lat": 22.9868,
    "lng": 87.8550
  }
]
